City,Cloudiness,Country,Date,Humidity,Lat,Lng,Max Temp,Wind Speed
manosque,0,FR,1561604167,73,43.83,5.78,80.01,4.52
caravelas,9,BR,1561604097,85,-17.73,-39.27,73.49,6.11
mataura,9,NZ,1561604010,83,-46.19,168.86,52,5.01
rikitea,0,PF,1561604168,81,-23.12,-134.97,74.21,10.65
laguna,90,BZ,1561604168,94,16.17,-88.94,77,6.93
olafsvik,,,,,,,,
talnakh,0,RU,1561604168,61,69.49,88.39,46.4,8.95
atar,0,MR,1561604168,17,20.52,-13.05,91.49,15.32
katsuura,90,JP,1561604169,100,33.93,134.5,77,20.8
ushuaia,90,AR,1561604169,92,-54.81,-68.31,28.4,13.87
chuy,4,UY,1561604169,81,-33.69,-53.46,44.69,9.71
providencia,61,CO,1561604169,91,1.24,-77.6,55.67,2.57
oistins,40,BB,1561604131,69,13.07,-59.53,82.4,23.04
bethel,90,US,1561604113,68,60.79,-161.76,68,17.22
albany,1,US,1561604170,93,42.65,-73.75,71.6,3.85
kapaa,75,US,1561604142,78,22.08,-159.32,80.6,11.41
ambon,0,FR,1561604171,94,47.55,-2.56,75.99,11.41
zemio,68,CF,1561604171,96,5.02,25.13,66.11,2.04
eureka,90,US,1561604007,87,40.8,-124.16,59,6.93
vadso,0,NO,1561604171,76,70.07,29.75,51.8,6.93
bambous virieux,75,MU,1561604102,83,-20.34,57.76,75.2,12.75
victoria,75,BN,1561604051,79,5.28,115.24,87.8,4.7
taltal,0,CL,1561604172,88,-25.41,-70.49,49.01,2.37
lensk,0,RU,1561604172,39,60.71,114.91,76.55,8.16
illoqqortoormiut,,,,,,,,
quesnel,75,CA,1561604172,87,52.98,-122.49,57.2,5.82
hilo,90,US,1561604173,65,19.71,-155.08,82.4,16.11
maryborough,42,AU,1561604173,59,-25.54,152.7,70.97,12.41
busselton,30,AU,1561603976,45,-33.64,115.35,60.01,29.59
avarua,22,CK,1561604173,73,-21.21,-159.78,75.2,4.7
jadu,0,LY,1561604173,54,31.95,12.03,74.57,3.8
ancud,75,CL,1561604174,87,-41.87,-73.83,46.4,11.41
cururupu,97,BR,1561604174,98,-1.82,-44.87,72.23,1.74
vaitupu,,,,,,,,
kuva,,,,,,,,
port elizabeth,1,US,1561604081,65,39.31,-74.98,80.6,5.82
pevek,32,RU,1561604174,81,69.7,170.27,36.05,26.73
manggar,46,ID,1561604175,59,-2.88,108.27,87.71,7.9
saint-pierre,0,FR,1561604175,94,48.95,4.24,77,11.41
college,1,US,1561604137,23,64.86,-147.8,78.8,9.17
shahrud,62,IR,1561604176,39,36.42,54.97,60.17,1.41
isangel,90,VU,1561604176,88,-19.55,169.27,78.8,6.93
dikson,85,RU,1561604176,93,73.51,80.55,34.07,16.11
jamestown,0,AU,1561604176,49,-33.21,138.6,64.49,16.24
carnarvon,0,ZA,1561604041,48,-30.97,22.13,38.75,6.78
oranjemund,0,ZA,1561604177,77,-28.55,16.43,54.95,4.38
south sioux city,1,US,1561604177,61,42.47,-96.41,78.8,8.05
grand junction,1,US,1561603950,10,39.06,-108.55,87.8,8.05
cidreira,0,BR,1561604177,61,-30.17,-50.22,45.77,0.72
barrow,93,AR,1561604177,38,-38.31,-60.23,49.73,20.76
taolanaro,,,,,,,,
punta arenas,0,CL,1561604016,79,-53.16,-70.91,26.6,11.41
nantucket,75,US,1561604178,87,41.28,-70.1,66.99,4.7
bluff,21,AU,1561604050,53,-23.58,149.07,73.49,19.19
gat,75,SN,1561604178,88,14.69,-16.54,77,9.17
hithadhoo,34,MV,1561603931,75,-0.6,73.08,83.39,10.36
kroya,0,ID,1561604179,49,-6.5,108.06,88.25,3.44
shihezi,0,CN,1561604179,19,44.3,86.03,86.45,1.72
vangaindrano,36,MG,1561604179,94,-23.35,47.6,62.69,4.74
new norfolk,0,AU,1561604179,66,-42.78,147.06,60.01,11.41
hambantota,75,LK,1561604179,94,6.12,81.12,82.4,10.29
adrar,0,DZ,1561604180,9,27.87,-0.29,89.6,8.05
suzu,,,,,,,,
tiksi,0,RU,1561604180,33,71.64,128.87,72.77,12.71
hobart,0,AU,1561603994,66,-42.88,147.33,60.01,11.41
galgani,,,,,,,,
ambilobe,76,MG,1561604180,88,-13.19,49.05,70.43,4.56
butaritari,1,KI,1561604181,75,3.07,172.79,83.75,12.95
laramie,1,US,1561604181,24,41.31,-105.59,71.6,4.7
amderma,,,,,,,,
asyut,0,EG,1561604181,20,27.18,31.19,83.93,10.31
cabo san lucas,5,MX,1561604067,23,22.89,-109.91,89.6,11.41
provideniya,90,RU,1561604005,87,64.42,-173.23,51.8,13.42
pitkyaranta,100,RU,1561604182,90,61.57,31.48,50.81,13.38
upernavik,0,GL,1561604182,89,72.79,-56.15,33.89,9.28
severo-kurilsk,100,RU,1561604182,96,50.68,156.12,40.55,17.54
fairbanks,1,US,1561603938,23,64.84,-147.72,78.8,9.17
lorengau,99,PG,1561604182,77,-2.02,147.27,83.93,6.33
buala,78,SB,1561604183,70,-8.15,159.59,84.47,8.61
atuona,10,PF,1561604038,71,-9.8,-139.03,81.05,17.45
bredasdorp,0,ZA,1561604183,87,-34.53,20.04,48,3.36
saint anthony,1,US,1561604183,24,43.97,-111.68,78.8,4.7
khatanga,0,RU,1561604183,33,71.98,102.47,57.11,7.4
hermanus,0,ZA,1561604010,97,-34.42,19.24,51.01,1.99
lerwick,98,GB,1561604184,87,60.15,-1.15,51.8,14.99
nikolskoye,0,RU,1561604036,82,59.7,30.79,60.01,2.24
udachnyy,40,RU,1561604184,41,66.42,112.4,77,6.71
bereda,0,ES,1561604184,93,43.27,-7.54,62.01,2.24
mahebourg,75,MU,1561604184,83,-20.41,57.7,75.2,12.75
acapulco,75,MX,1561604185,79,16.86,-99.88,84.2,3.36
flinders,40,AU,1561604185,72,-34.58,150.85,66,8.05
nanortalik,99,GL,1561604185,99,60.14,-45.24,36.77,9.37
hasaki,75,JP,1561604185,66,35.73,140.83,88,14.99
northam,75,AU,1561604185,82,-31.65,116.67,57.2,11.41
lianzhou,92,CN,1561604186,64,24.79,112.38,84.11,4.92
sao sebastiao,89,BR,1561604186,80,-3.15,-58.36,76.19,0.83
puerto ayora,0,EC,1561604037,95,-0.74,-90.35,72,12.64
noumea,75,NC,1561604020,78,-22.28,166.46,73.4,10.29
camana,,,,,,,,
beloha,33,MG,1561604186,87,-25.17,45.06,65.93,13.22
kyren,100,RU,1561604187,92,51.68,102.13,41.81,5.37
barentsburg,,,,,,,,
motygino,0,RU,1561604187,29,58.18,94.69,83.75,3.71
louga,16,SN,1561604187,78,15.62,-16.22,74.75,11.52
hovd,75,NO,1561604188,81,63.83,10.7,53.01,17.22
belushya guba,,,,,,,,
taggia,0,IT,1561604188,54,43.86,7.85,86,10.29
thompson,40,CA,1561604188,82,55.74,-97.86,59,2.24
palmer,0,AU,1561604189,42,-34.85,139.16,70,18.34
sataua,,,,,,,,
vao,100,EE,1561604189,98,59.1,26.19,54.77,0.18
aktash,,,,,,,,
hofn,88,IS,1561604042,92,64.25,-15.21,44.15,11.74
vestmannaeyjar,100,IS,1561604189,97,63.44,-20.27,52.61,17.18
tasiilaq,100,GL,1561604190,81,65.61,-37.64,44.6,2.24
beli manastir,0,HR,1561604190,100,45.77,18.61,70,4.7
lahaina,75,US,1561604107,62,20.87,-156.68,86,11.41
corning,1,US,1561603908,68,42.14,-77.05,69.8,6.55
srednekolymsk,0,RU,1561604190,24,67.46,153.71,72.95,18.61
acajutla,99,SV,1561604190,68,13.59,-89.83,85.19,3.47
lamu,100,CN,1561604191,94,35.77,102.37,49.73,3.09
pahrump,1,US,1561604191,6,36.21,-115.98,91.99,19.46
kovur,100,IN,1561604191,66,14.5,79.99,82.31,9.53
codrington,75,AU,1561604089,88,-28.95,153.24,69.8,8.05
wenling,82,CN,1561604191,20,28.38,121.38,90,1.63
whitewater,1,US,1561604192,77,42.83,-88.73,75.2,1.99
port hardy,75,CA,1561604192,82,50.7,-127.42,59,12.75
prince rupert,1,CA,1561604192,93,54.32,-130.32,57.2,4.7
uyuni,0,BO,1561604192,27,-20.46,-66.82,33.71,10.67
mahanoro,23,MG,1561604192,96,-19.9,48.8,61.61,2.98
kruisfontein,0,ZA,1561604193,76,-34,24.73,53.51,8.86
cap-aux-meules,75,CA,1561604193,71,47.38,-61.86,57.2,9.17
khani,75,GE,1561604193,94,41.96,42.96,69.8,4.7
troitsko-pechorsk,0,RU,1561604193,48,62.71,56.19,58.91,1.77
kichera,98,RU,1561604194,58,55.93,110.1,65.21,3.85
kodiak,1,US,1561604065,47,39.95,-94.76,80.6,5.82
hami,0,CN,1561604194,17,42.84,93.51,76.91,12.84
yellowknife,75,CA,1561604194,81,62.45,-114.38,53.6,14.99
ahipara,1,NZ,1561604194,100,-35.17,173.16,62.01,15.99
tanout,1,NE,1561604194,39,14.97,8.88,87.89,7.2
vaini,75,IN,1561604195,94,15.34,74.49,73.4,6.93
inhambane,0,MZ,1561604195,96,-23.87,35.38,59.63,2.08
airai,99,TL,1561604195,44,-8.93,125.41,82.13,1.88
ribeira grande,80,PT,1561604195,77,38.52,-28.7,64.13,16.13
cape town,0,ZA,1561604041,100,-33.93,18.42,59,3.36
labytnangi,62,RU,1561604196,74,66.66,66.39,43.43,4.23
iwanai,100,JP,1561604196,71,42.97,140.51,66.83,8.52
klaksvik,49,FO,1561604196,93,62.23,-6.59,50,6.93
saint-philippe,1,CA,1561604196,88,45.36,-73.48,71.6,6.93
taikang,84,CN,1561604197,66,46.86,124.44,72.05,16.84
malakal,,,,,,,,
marsa matruh,40,EG,1561604197,83,31.35,27.25,77,5.82
tapaua,,,,,,,,
mumbwa,0,ZM,1561604197,71,-14.99,27.06,53.15,5.93
rawson,0,AR,1561604150,53,-43.3,-65.11,46.49,20
nouadhibou,0,MR,1561604197,73,20.93,-17.03,71.6,21.92
opuwo,0,NA,1561604198,80,-18.06,13.84,44.87,1.86
clarksdale,20,US,1561604198,88,34.2,-90.57,80.6,5.64
port lincoln,39,AU,1561604198,66,-34.72,135.86,62.33,24.52
constantine,0,DZ,1561604199,40,36.36,6.61,69.8,2.24
marystown,100,CA,1561604199,81,47.17,-55.16,49.19,1.39
mokama,100,IN,1561604199,50,25.4,85.92,93.47,11.86
lalomanu,,,,,,,,
maiduguri,100,NG,1561604199,63,11.84,13.15,80.69,9.64
keti bandar,36,PK,1561604200,82,24.14,67.45,84.47,18.84
lukovetskiy,40,RU,1561604200,76,64.29,41.92,55.4,2.24
terralba,0,IT,1561604200,73,39.72,8.64,71.6,5.82
bolshiye uki,,,,,,,,
sinkat,,,,,,,,
los llanos de aridane,4,ES,1561604200,68,28.66,-17.92,68,5.82
dharchula,0,IN,1561604201,62,29.85,80.53,61.07,5.46
roebourne,32,AU,1561604201,25,-20.77,117.15,77.81,3.38
sinnamary,92,GF,1561604201,85,5.38,-52.96,79.43,18.21
nenjiang,100,CN,1561604201,95,49.17,125.23,56.75,21.47
tsihombe,,,,,,,,
axim,66,GH,1561604144,89,4.87,-2.24,76.55,10.58
iqaluit,20,CA,1561604202,75,63.75,-68.52,44.6,5.82
ourem,40,PT,1561604202,93,39.64,-8.59,62.01,2.24
la ronge,40,CA,1561604202,67,55.1,-105.3,62.6,5.82
yenagoa,100,NG,1561604202,97,4.92,6.26,73.13,2.68
kindu,55,CD,1561604203,86,-2.95,25.92,71.69,2.59
pandan,100,PH,1561604139,78,11.72,122.09,83.21,18.14
ostrovnoy,100,RU,1561604203,78,68.05,39.51,51.35,12.44
hailar,60,CN,1561604203,59,49.2,119.7,70.07,14
port alfred,0,ZA,1561604203,90,-33.59,26.89,55,13.6
puerto baquerizo moreno,33,EC,1561604204,90,-0.9,-89.6,72.41,11.21
verkhnevilyuysk,0,RU,1561604204,42,63.45,120.31,76.73,4.74
demba,39,CD,1561604204,53,-5.47,22.27,67.73,1.05
aksarka,100,RU,1561604204,53,66.56,67.8,50.09,3.06
barcelona,0,ES,1561604205,57,41.38,2.18,79,4.7
nizhneyansk,,,,,,,,
kiruna,81,SE,1561604205,87,67.86,20.23,44.6,4.7
ola,43,RU,1561604205,75,59.58,151.3,52.43,4.92
port hedland,32,AU,1561604205,83,-20.31,118.58,69.8,10.29
souillac,0,FR,1561604206,69,45.6,-0.6,80.6,6.93
kavieng,96,PG,1561604206,71,-2.57,150.8,85.01,10.94
castro,75,CL,1561604206,87,-42.48,-73.76,46.4,11.41
kabinda,40,CD,1561604206,52,-6.14,24.49,67.91,1.21
qaanaaq,0,GL,1561604207,69,77.48,-69.36,34.79,0.65
khandbari,63,NP,1561604207,83,27.38,87.21,65.03,4.16
mys shmidta,,,,,,,,
east london,23,ZA,1561604207,46,-33.02,27.91,61.25,15.17
bargal,,,,,,,,
kaeo,56,NZ,1561604207,100,-35.1,173.78,62.01,7.7
mar del plata,68,AR,1561604208,94,-46.43,-67.52,33.53,14.14
gaya,75,IN,1561604156,70,24.8,85.01,87.8,2.24
ulaanbaatar,40,MN,1561604208,81,47.92,106.92,51.8,8.95
rocha,22,UY,1561604208,73,-34.48,-54.34,43.79,10
karasjok,100,NO,1561604208,66,69.47,25.52,50,20.8
saint-leu,75,RE,1561604209,88,-21.15,55.28,73.4,9.17
lazaro cardenas,75,MX,1561604209,14,28.39,-105.62,89.6,9.17
ponta do sol,80,BR,1561604209,58,-20.63,-46,66.65,2.68
dunedin,0,NZ,1561604209,39,-45.87,170.5,61,7
artyom,75,RU,1561604210,83,43.36,132.19,69.8,8.95
san policarpo,100,PH,1561604210,63,12.18,125.51,86.63,3.6
kryva,0,UA,1561604210,81,49.6,30.5,62.33,8.9
vanavara,0,RU,1561604210,34,60.35,102.28,81.41,4.23
alofi,75,NU,1561604210,73,-19.06,-169.92,77,16.11
lucea,20,JM,1561604211,66,18.44,-78.17,84.2,9.17
bathsheba,40,BB,1561604211,69,13.22,-59.52,82.4,23.04
saskylakh,69,RU,1561604211,54,71.97,114.09,57.65,15.86
siniscola,0,IT,1561604211,73,40.57,9.69,69.8,3.36
makakilo city,40,US,1561604211,78,21.35,-158.09,82.4,8.05
miri,100,NG,1561604212,84,10.31,9.75,72.23,6.35
fare,0,PF,1561604212,71,-16.7,-151.02,80.51,6.62
saint-prosper,100,CA,1561604212,88,46.21,-70.48,66.99,5.17
roura,100,GF,1561604212,94,4.73,-52.33,75.2,5.82
parana,13,BR,1561604212,84,-7.52,-72.89,72.77,1.7
badiraguato,40,MX,1561604213,38,25.36,-107.55,89.6,5.82
bay roberts,20,CA,1561603958,81,47.58,-53.28,46.99,3.36
gizo,0,IL,1561604213,64,31.8,34.94,75.2,3.36
kirkwood,0,ZA,1561604213,67,-33.4,25.44,59,3.36
khandyga,0,RU,1561604214,26,62.65,135.58,80.51,3.83
bontang,10,ID,1561604214,58,0.12,117.47,88.79,4.5
shelburne,1,CA,1561604214,82,44.08,-80.2,66.99,2.24
progreso,0,UY,1561604214,65,-34.68,-56.22,51.01,6.93
teya,20,MX,1561604170,66,21.05,-89.07,86,13.87
cherskiy,91,RU,1561604215,36,68.75,161.3,64.31,17.78
maine-soroa,100,NE,1561604215,55,13.21,12.02,84.11,13.11
umzimvubu,,,,,,,,
port-gentil,16,GA,1561604215,75,-0.72,8.78,76.01,10.56
geraldton,75,CA,1561604215,56,49.72,-86.95,68,8.05
vostok,100,RU,1561604216,99,46.45,135.83,58.19,3.56
itarema,0,BR,1561604158,94,-2.92,-39.92,72.41,5.48
half moon bay,90,US,1561604216,87,37.46,-122.43,64.99,10.29
turayf,0,SA,1561604216,36,31.68,38.65,77,14.99
aklavik,90,CA,1561604216,46,68.22,-135.01,50,6.93
bengkulu,,,,,,,,
tumannyy,,,,,,,,
zwedru,98,LR,1561604217,98,6.07,-8.13,71.33,1.97
altay,74,CN,1561604217,37,47.83,88.13,61.97,5.57
buraydah,0,SA,1561604217,34,26.33,43.97,80.6,2.24
san juan,11,AR,1561603963,25,-31.54,-68.53,45.95,9.01
svetlograd,0,RU,1561604218,60,45.34,42.84,73.4,4.47
kemijarvi,,,,,,,,
muhos,90,FI,1561604218,87,64.81,26,55.99,6.93
mandera,0,ET,1561604219,63,3.94,41.86,75.29,9.53
kahului,75,US,1561604219,62,20.89,-156.47,86,11.41
karratha,69,AU,1561604219,37,-20.74,116.85,77.45,5.48
lafia,100,NG,1561604219,97,8.5,8.51,74.03,3.58
chokurdakh,0,RU,1561604090,31,70.62,147.9,67.19,15.48
mount gambier,0,AU,1561604220,63,-37.83,140.78,60.8,14.99
longyearbyen,75,NO,1561604220,86,78.22,15.63,39.2,12.75
solvychegodsk,55,RU,1561604220,61,61.33,46.92,53.87,0.4
richards bay,33,ZA,1561604220,69,-28.77,32.06,68.63,20.07
vila velha,75,BR,1561604029,65,-3.71,-38.6,80.6,12.75
petropavlovsk-kamchatskiy,75,RU,1561604025,71,53.05,158.65,51.8,8.95
cam pha,,,,,,,,
lasa,0,CY,1561604221,93,34.92,32.53,75.2,5.82
darab,0,IR,1561604221,39,28.75,54.55,76.55,1.74
maneadero,,,,,,,,
imola,0,IT,1561604221,78,44.35,11.71,77,4.7
ziro,100,IN,1561604221,99,27.54,93.82,62.87,1.81
charters towers,0,AU,1561604222,43,-20.07,146.27,74.57,11.41
tura,86,RU,1561604222,50,64.27,100.22,75.29,0.29
arraial do cabo,0,BR,1561604027,88,-22.97,-42.02,71.6,4.7
lagoa,0,PT,1561604222,77,37.14,-8.45,64.4,5.82
san quintin,99,PH,1561604223,66,17.54,120.52,86.09,4.81
ceres,0,BR,1561604223,56,-15.31,-49.6,65.57,2.42
samusu,,,,,,,,
darhan,100,MN,1561604223,60,49.49,105.92,59.81,10.16
praia,9,BR,1561604223,77,-20.25,-43.81,58.73,2.62
vila,0,IT,1561604224,83,45.18,8.4,81,4.7
den helder,75,NL,1561604224,82,52.96,4.76,60.01,9.17
luderitz,0,NA,1561604224,100,-26.65,15.16,48.2,4.7
port blair,100,IN,1561604224,82,11.67,92.75,84.29,19.91
grand gaube,75,MU,1561604225,83,-20.01,57.66,75.2,12.75
tromso,90,NO,1561604225,81,69.65,18.96,46.4,38.03
namatanai,66,PG,1561604200,74,-3.66,152.44,82.67,11.36
vyritsa,0,RU,1561604225,82,59.41,30.35,60.01,2.24
grand river south east,,,,,,,,
lavrentiya,100,RU,1561604006,97,65.58,-170.99,47.21,5.73
nabire,100,ID,1561604226,69,-3.36,135.5,80.87,5.26
saldanha,0,PT,1561604226,76,41.42,-6.55,62.51,0.78
tuatapere,77,NZ,1561604226,83,-46.13,167.69,52,5.01
nerchinskiy zavod,100,RU,1561604226,40,51.31,119.61,68.27,7.34
tumut,0,AU,1561604105,51,-35.3,148.22,57.65,5.48
rabo de peixe,40,PT,1561604226,77,37.8,-25.58,62.6,6.93
langham,20,CA,1561604227,40,52.36,-106.96,71.6,2.84
san patricio,0,PY,1561604227,80,-26.98,-56.83,42.53,5.35
cayenne,98,GF,1561604227,94,4.94,-52.33,75.2,5.82
wajir,37,KE,1561604227,74,1.75,40.07,72.95,13.04
andevoranto,,,,,,,,
alice springs,74,AU,1561604187,34,-23.7,133.88,64.4,8.05
ashdod,0,IL,1561604228,64,31.8,34.65,75.2,3.36
moron,6,HT,1561604228,84,18.56,-74.26,80.51,7.14
tiarei,75,PF,1561604228,74,-17.53,-149.33,82.4,8.05
bend,75,US,1561604229,81,44.06,-121.32,57.2,10.29
grindavik,90,IS,1561604229,100,63.84,-22.43,51.8,17.22
buribay,13,RU,1561604229,70,51.96,58.16,55.85,7.76
poum,0,MK,1561604029,82,41.28,20.71,60.8,3.36
yar-sale,45,RU,1561604229,55,66.83,70.83,50.63,6.55
nemuro,75,JP,1561604092,64,43.32,145.57,71.6,4.7
sitka,67,US,1561604138,66,37.17,-99.65,80.01,11.01
sistranda,75,NO,1561604230,93,63.73,8.83,53.01,16.11
beringovskiy,99,RU,1561604230,87,63.05,179.32,49.01,4.36
mantua,0,IT,1561604230,83,45.16,10.79,80.01,3.36
tuktoyaktuk,90,CA,1561604009,80,69.44,-133.03,41,13.87
chicama,90,PE,1561604230,88,-7.84,-79.15,64.4,9.17
san francisco del mar,100,MX,1561604231,62,16.34,-94.51,84.29,14.9
dubenskiy,,,,,,,,
dawei,100,MM,1561604231,81,14.07,98.19,83.21,24.32
turukhansk,100,RU,1561604231,89,65.8,87.96,56.21,19.01
raga,,,,,,,,
wenatchee,90,US,1561604232,45,47.42,-120.31,66.2,14.99
magadan,76,RU,1561604232,73,59.56,150.8,52.97,7
lompoc,90,US,1561604129,77,34.64,-120.46,66.99,16.11
landerneau,90,FR,1561604232,93,48.45,-4.26,64.4,11.41
mitsamiouli,0,KM,1561604232,74,-11.38,43.28,76.91,21.72
aksu,75,KZ,1561604233,82,52.04,76.93,68,15.66
alindao,100,CF,1561604233,91,5.04,21.21,67.91,0.78
nsanje,2,MZ,1561604233,97,-16.92,35.26,58.01,2.51
yushala,0,RU,1561604233,67,57.08,64.26,57.2,4.47
erdenet,1,MN,1561604192,69,49.03,104.04,56.03,14.92
torbay,20,CA,1561604218,81,47.66,-52.73,46.99,3.36
baymak,9,RU,1561604234,78,52.6,58.31,51.71,4.72
sakaiminato,75,JP,1561604234,88,35.55,133.23,77,8.05
kholm,20,AF,1561604234,14,36.69,67.7,82.4,2.24
bainbridge,1,US,1561604234,74,30.9,-84.58,84.2,5.08
florian,60,CO,1561604235,92,5.71,-74.17,70.07,3.42
honiara,40,SB,1561604235,75,-9.43,159.96,89.6,10.29
shingu,75,JP,1561604235,94,33.72,135.99,77,19.46
lindi,62,TZ,1561604235,83,-10,39.71,64.31,4.21
coquimbo,0,CL,1561604235,76,-29.95,-71.34,53.01,9.28
mocambique,,,,,,,,
breyten,45,ZA,1561604236,95,-26.3,29.99,40.37,4.99
tomohon,20,ID,1561604147,59,1.33,124.84,89.6,5.82
bakchar,0,RU,1561604236,52,57.02,82.07,71.87,9.13
minab,0,IR,1561604236,89,27.15,57.07,87.8,2.24
kharovsk,88,RU,1561604237,74,59.95,40.21,47.57,3.53
bubaque,99,GW,1561604237,78,11.28,-15.83,79.79,11.25
pisco,75,PE,1561604237,87,-13.71,-76.2,60.8,2.24
puerto quijarro,75,BO,1561604237,93,-19,-57.72,58.73,4.43
komadi,0,HU,1561604237,88,47,21.5,68,6.93
alnashi,100,RU,1561604238,70,56.18,52.48,52.61,2.48
paita,0,PE,1561603989,90,-5.09,-81.11,65.21,16.37
tighina,0,RO,1561604238,88,44.57,24.3,70,1.12
willowmore,0,ZA,1561604238,85,-33.3,23.49,42.89,4.65
soyo,95,AO,1561604238,79,-6.13,12.37,73.49,12.37
esperance,0,AU,1561604238,77,-33.86,121.89,59,19.46
koslan,40,RU,1561604239,46,63.46,48.9,58.55,1.61
mitu,0,IR,1561604239,42,36.2,46.09,70.43,3.91
vagur,99,FO,1561604239,96,61.47,-6.81,50.27,14.05
wanning,0,AT,1561604239,78,48.64,13.53,72,4.7
zhigansk,0,RU,1561604178,36,66.77,123.37,79.25,6.44
lagos,100,NG,1561604240,94,6.46,3.39,74.57,7.11
pravda,90,BG,1561604240,100,43.16,25.69,64,1.12
gazanjyk,41,TM,1561604240,25,39.24,55.52,91.31,8.84
lebu,75,ET,1561604081,72,8.96,38.73,60.8,3.36
kristiinankaupunki,,,,,,,,
sentyabrskiy,,,,,,,,
kvarkeno,8,RU,1561604241,65,52.08,59.73,58.01,7.23
olinda,20,AU,1561604241,54,-37.84,145.39,66.99,26.4
ilulissat,0,GL,1561604241,75,69.22,-51.1,42.8,8.05
ishigaki,75,JP,1561604241,94,24.34,124.16,82.4,19.46
mullaitivu,,,,,,,,
batagay,0,RU,1561604242,20,67.65,134.64,84.11,3.56
alugan,100,PH,1561604242,86,12.22,125.48,83.93,3.6
chimbote,0,PE,1561604242,91,-9.08,-78.59,62.33,10.74
homer,1,US,1561604242,82,59.64,-151.54,73,10.29
santa catalina,74,UY,1561604243,74,-33.79,-57.49,45,1.99
cascais,20,PT,1561604243,93,38.7,-9.42,61,2.24
dujuma,,,,,,,,
beaverlodge,75,CA,1561604243,76,55.21,-119.43,57.2,6.93
itacare,20,BR,1561604244,100,-14.28,-39,71.6,5.82
lar gerd,,,,,,,,
mayo,20,CA,1561604244,20,63.59,-135.9,73.4,6.93
orlik,90,PL,1561604244,88,53.95,17.74,66,20.8
marzuq,100,YE,1561604244,19,14.4,46.47,79.61,2.35
mehamn,100,NO,1561604245,95,71.03,27.85,43.61,23.71
trat,40,TH,1561604245,74,12.25,102.51,89.01,5.82
attawapiskat,,,,,,,,
nishihara,75,JP,1561604245,69,35.74,139.53,86,17.22
jiroft,,,,,,,,
yagodnoye,71,RU,1561604245,28,62.52,149.63,66.65,18.14
sao joao da barra,1,BR,1561604246,84,-21.64,-41.05,69.53,2.51
aswan,0,EG,1561604222,16,24.09,32.9,93.2,9.17
ramnagar,9,IN,1561604246,61,27.17,84.33,90.59,5.7
touros,20,BR,1561603986,94,-5.2,-35.46,73.4,4.7
tilichiki,100,RU,1561604246,54,60.47,166.1,58.37,2.48
empalme,75,MX,1561604164,58,27.96,-110.81,91.99,11.41
bijie,92,CN,1561604247,83,27.3,105.3,72.59,2.24
bayji,0,IQ,1561604247,12,34.93,43.49,93.65,10.25
matara,68,BI,1561604247,87,-3.48,29.48,50.99,1.23
mabaruma,0,GY,1561604247,98,8.2,-59.78,71.15,2.15
sao filipe,0,CV,1561604248,85,14.9,-24.5,74.21,21.32
murgeni,0,RO,1561604248,65,46.2,28.02,64.67,1.61
juba,75,EE,1561604248,93,57.82,26.93,55.4,3.36
makkaveyevo,40,RU,1561604248,72,51.75,113.95,66.2,8.95
georgetown,20,GY,1561604095,88,6.8,-58.16,77,4.7
ondjiva,0,AO,1561604249,50,-17.07,15.73,49.73,1.79
kautokeino,54,NO,1561604249,69,69.01,23.04,47.03,12.88
tete,40,MZ,1561604249,88,-16.16,33.59,64.4,2.37
mwinilunga,0,ZM,1561604250,57,-11.73,24.43,52.43,7.18
pacific grove,1,US,1561604250,72,36.62,-121.92,66.99,8.05
ekhabi,66,RU,1561604250,82,53.51,142.97,44.69,20.47
riyadh,0,SA,1561604199,12,24.63,46.72,82.4,3.36
vestmanna,67,FO,1561604250,93,62.16,-7.17,50,6.93
katherine,15,AU,1561604250,26,-14.47,132.26,80.6,14.99
salalah,90,OM,1561604014,100,17.01,54.1,80.6,5.82
saint george,40,GR,1561604251,57,39.45,22.34,78.01,1.79
kendari,6,ID,1561604096,58,-3.99,122.52,87.35,2.59
aasiaat,0,GL,1561604251,80,68.71,-52.87,37.31,5.88
isabela,100,PH,1561604251,73,10.2,122.99,83.93,15.5
sagarejo,0,GE,1561604252,68,41.73,45.33,71.6,14.99
yaan,100,NG,1561604252,97,7.38,8.57,72.77,5.08
pervomaysk,100,RU,1561604252,97,54.87,43.81,54.23,5.48
poronaysk,62,RU,1561604252,49,49.22,143.1,60.89,14.72
zheleznodorozhnyy,90,RU,1561604252,87,55.75,38,57.2,4.47
praya,75,ID,1561604019,65,-8.71,116.27,80.6,9.17
rio casca,0,BR,1561604253,90,-20.23,-42.65,61.25,1.77
vyartsilya,100,RU,1561604253,98,62.18,30.69,52.07,4.65
morant bay,20,JM,1561604253,66,17.88,-76.41,86,12.75
tshikapa,15,CD,1561604254,39,-6.42,20.79,67.55,3.27
ahuimanu,75,US,1561604254,69,21.44,-157.84,82.4,6.93
abbeville,20,FR,1561604254,87,50.11,1.83,62.01,9.17
baker city,20,US,1561604254,77,44.77,-117.83,70,9.17
roseau,1,US,1561604254,68,48.85,-95.76,69.8,4.7
yulara,0,AU,1561604255,25,-25.24,130.99,62.6,6.93
gushikawa,40,JP,1561604255,79,26.35,127.87,87.8,10.29
hamilton,75,CA,1561604255,56,43.26,-79.87,77,2.24
buchanan,98,LR,1561604255,88,5.88,-10.05,77.45,13.04
asfi,,,,,,,,
khairagarh,100,IN,1561604256,59,21.42,80.98,88.25,6.06
pirapora,0,BR,1561604256,57,-17.35,-44.95,63.05,0.78
shimoda,75,JP,1561604256,94,34.7,138.93,81,10.29
santa isabel do rio negro,37,BR,1561604256,98,-0.41,-65.02,73.13,3.44
lodja,50,CD,1561604257,82,-3.52,23.6,71.33,2.35
gonbad-e qabus,0,IR,1561604245,78,37.25,55.17,80.6,9.42
rio gallegos,90,AR,1561604257,79,-51.62,-69.22,26.6,14.99
puerto escondido,20,MX,1561604257,78,15.86,-97.07,82.4,1.88
panzhihua,99,CN,1561604257,69,26.59,101.72,75,1.86
balimo,,,,,,,,
leshukonskoye,100,RU,1561604258,56,64.9,45.76,55.31,6.13
talcahuano,90,CL,1561604258,93,-36.72,-73.12,55.4,13.87
novyy urgal,96,RU,1561604258,46,51.07,132.56,67.91,3.91
mentok,,,,,,,,
nanhai,94,CN,1561604258,59,30.13,111.78,87.01,6.22
avera,1,US,1561604259,88,33.19,-82.53,77,0.87
caucaia,75,BR,1561604259,65,-3.73,-38.66,80.6,12.75
antofagasta,90,CL,1561604259,82,-23.65,-70.4,55.4,1.12
ponta pora,0,BR,1561604259,91,-22.54,-55.73,54.41,2.86
aksay,81,KZ,1561604260,71,51.17,53.01,59.45,3.69
port augusta,0,AU,1561604260,42,-32.49,137.76,68,23.04
eyrarbakki,90,IS,1561604260,93,63.86,-21.15,51.01,9.17
temaraia,,,,,,,,
ixtapa,90,MX,1561604260,83,20.71,-105.21,84,6.93
kolpny,96,RU,1561604260,89,52.23,37.04,64.13,9.71
malinovoye ozero,0,RU,1561604261,43,51.68,79.77,75.65,5.82
puerto carreno,20,CO,1561604261,78,6.19,-67.49,82.4,7.49
bilibino,82,RU,1561604261,42,68.06,166.44,60.17,16.73
neryungri,87,RU,1561604261,40,56.66,124.71,71.15,3.78
yeppoon,75,AU,1561604262,60,-23.13,150.74,73.4,18.34
grand-lahou,100,CI,1561604262,97,5.24,-5,72.95,3.33
toora-khem,85,RU,1561604262,75,52.47,96.11,57.47,5.86
the valley,75,AI,1561604262,83,18.22,-63.06,81,13.87
norman wells,20,CA,1561604262,36,65.28,-126.83,60.8,8.05
faanui,0,PF,1561604263,69,-16.48,-151.75,80.69,2.39
khash,0,IR,1561604263,10,28.22,61.21,75.83,7.85
peleduy,0,RU,1561604263,34,59.63,112.75,77.81,8.77
yuzhnouralsk,99,RU,1561604263,88,54.44,61.27,52.07,8.05
chapais,90,CA,1561604027,87,49.78,-74.86,60.8,8.05
bocas del toro,100,PA,1561604261,43,9.33,-82.25,61,10
freeport,0,BS,1561604062,74,26.54,-78.7,83.57,12.19
clonakilty,20,IE,1561604264,87,51.62,-8.87,63,17.22
teahupoo,75,PF,1561604264,74,-17.83,-149.27,82.4,8.05
tabuk,99,PH,1561604264,71,17.41,121.44,76.73,2.3
san angelo,1,US,1561604264,61,31.46,-100.44,82,5.82
igarka,100,RU,1561604265,92,67.47,86.57,42.53,17.27
makat,4,KZ,1561604265,37,47.65,53.35,73.85,7.09
moindou,75,NC,1561604265,78,-21.69,165.68,73.4,10.29
barra patuca,100,HN,1561604265,80,15.8,-84.28,82.85,18.23
margate,0,AU,1561604088,66,-43.03,147.26,60.01,11.41
champerico,75,MX,1561604266,78,16.38,-93.6,78.8,6.93
narsaq,90,GL,1561604266,87,60.91,-46.05,48.2,8.05
ruatoria,,,,,,,,
saint-francois,0,FR,1561604266,93,46.42,3.91,66.2,1.12
rujewa,0,TZ,1561604266,86,-8.7,34.38,54.05,1.81
clyde river,75,CA,1561604267,100,70.47,-68.59,33.8,11.41
north bend,0,US,1561604078,93,43.41,-124.22,60.01,8.05
padang,23,ID,1561604247,73,-0.92,100.36,81.59,4.5
carroll,40,AU,1561604267,45,-30.99,150.44,66.2,16.11
mercedes,67,UY,1561604267,75,-33.25,-58.03,46.67,13.35
rio cuarto,0,AR,1561604268,49,-33.13,-64.35,46.4,18.34
bressanone,0,IT,1561604268,77,46.72,11.66,68,3.36
saleaula,,,,,,,,
lhokseumawe,55,ID,1561604170,59,5.18,97.15,82.67,2.89
sedniv,100,UA,1561604268,91,51.64,31.56,67.37,11.95
fortuna,90,US,1561603990,87,40.6,-124.16,59,6.93
aykhal,40,RU,1561604269,41,65.95,111.51,77,6.71
iquique,90,CL,1561604269,77,-20.22,-70.14,60.8,10.29
ornskoldsvik,6,SE,1561604269,66,63.29,18.72,50,12.75
mokhotlong,42,LS,1561604269,84,-29.29,29.06,31.55,7.65
bintulu,75,MY,1561604270,83,3.17,113.03,84.2,4.7
shima,75,JP,1561604270,83,34.34,136.82,78.8,9.17
camaqua,0,BR,1561604270,70,-30.85,-51.81,41.27,2.53
mount darwin,84,ZW,1561604270,84,-16.77,31.58,55.49,2.44
naryan-mar,98,RU,1561604270,56,67.67,53.09,54.59,8.19
qingquan,100,CN,1561604271,86,34.7,106,59.27,11.97
elizabethtown,75,US,1561604271,73,40.15,-76.6,78.8,3.29
meulaboh,0,ID,1561604271,73,4.14,96.13,81.77,3.62
vilhena,41,BR,1561604271,72,-12.74,-60.15,71.15,1.5
georgiyevka,80,RU,1561604272,84,52.25,40.45,61.61,9.15
maltahohe,0,NA,1561604272,50,-24.83,16.98,48.29,5.26
poiana marului,0,RO,1561604272,78,45.6,25.3,61,6.24
louisbourg,,,,,,,,
vrangel,98,RU,1561604272,75,42.73,133.08,68.81,7.25
santa monica,40,US,1561604273,82,34.02,-118.49,70,11.41
sumenep,51,ID,1561604273,61,-7.02,113.87,83.21,6.6
yumen,99,CN,1561604273,42,40.29,97.04,69.89,19.77
belyy yar,0,RU,1561604273,60,53.6,91.39,68,2.24
statesboro,1,US,1561604274,83,32.45,-81.78,79,4.41
muroto,75,JP,1561604274,88,33.37,134.14,75.2,17.22
pokhara,8,NP,1561604223,72,28.21,83.99,63.95,5.35
phayao,100,TH,1561604274,68,19.17,99.9,80.51,4.27
bikin,100,RU,1561604274,97,46.82,134.25,54.05,2.8
guiyang,75,CN,1561604009,83,26.58,106.71,78.8,4.47
san ramon,86,NI,1561604275,91,12.92,-85.84,67.91,5.79
sirjan,0,IR,1561604275,26,29.44,55.67,82.31,7
esso,96,RU,1561604275,60,55.93,158.7,49.19,7.52
shaowu,87,CN,1561604275,58,27.34,117.49,86.81,3.78
sabha,0,LY,1561604275,32,27.03,14.43,83.03,8.57
tall kayf,0,TR,1561604276,24,37.08,41.07,82.4,3.36
kamenskoye,,,,,,,,
naftah,,,,,,,,
collecchio,0,IT,1561604276,65,44.75,10.22,80.01,4.52
lagunas,0,PE,1561604276,92,-5.23,-75.68,73.31,2.93
ternate,75,PH,1561604277,70,14.29,120.72,88,6.93
stege,0,DK,1561604277,87,54.99,12.28,55,9.17
matay,0,EG,1561604277,35,28.42,30.79,77.99,6.33
palmas bellas,20,PA,1561604277,83,9.23,-80.09,82.4,9.17
hobe sound,1,US,1561604052,74,27.06,-80.14,86,5.01
kaitangata,0,NZ,1561604278,52,-46.28,169.85,57,11.01
kutum,32,SD,1561604278,53,14.2,24.66,75.83,9.44
darasun,40,RU,1561604278,72,51.66,113.98,66.2,8.95
cape coast,98,GH,1561604278,91,5.11,-1.24,76.01,7.61
semenivka,100,UA,1561604278,96,52.18,32.58,64.85,10.85
ruidoso,1,US,1561604081,30,33.33,-105.67,89.6,16.11
watertown,1,US,1561604189,61,44.9,-97.12,80.6,3.36
gwadar,26,PK,1561604279,81,25.12,62.33,84.11,9.57
maragogi,100,BR,1561604126,97,-9.01,-35.22,70.79,1.52
dakar,75,SN,1561604279,88,14.69,-17.45,77,9.17
banamba,0,ML,1561604279,55,13.55,-7.45,85.91,16.08
zhoucheng,75,CN,1561604280,69,31.35,119.33,80.6,4.47
fredericksburg,1,US,1561604020,83,38.3,-77.46,79,2.71
saint-augustin,40,CA,1561604280,100,45.63,-73.98,71.6,3.78
aktau,0,KZ,1561604280,50,43.65,51.16,78.8,11.18
pailon,90,BO,1561604280,82,-17.66,-62.72,57.2,2.24
zhangye,100,CN,1561604281,51,38.94,100.46,60.35,8.84
karamea,,,,,,,,
sept-iles,90,CA,1561604090,93,50.2,-66.38,55.4,8.05
petatlan,75,MX,1561604281,74,17.52,-101.27,86,11.41
san sebastian de los reyes,0,ES,1561604281,47,40.54,-3.62,78.8,8.05
ca mau,100,VN,1561604282,92,9.18,105.15,76.01,9.26
ust-kuyga,1,RU,1561604282,21,70,135.55,81.41,2.46
constitucion,20,MX,1561604282,13,23.99,-104.67,82.4,10.29
cabedelo,0,BR,1561604278,100,-6.97,-34.84,73.4,6.93
tairua,41,NZ,1561604282,73,-37.02,175.85,55.99,3.71
abu dhabi,0,AE,1561604081,79,24.47,54.37,91.4,2.24
kudahuvadhoo,71,MV,1561604283,72,2.67,72.89,82.49,1.68
valparaiso,90,US,1561604052,83,41.47,-87.06,77,9.17
khunti,75,IN,1561604283,78,23.08,85.28,78.8,3.36
amahai,77,ID,1561604283,81,-3.31,129,79.25,14.03
martapura,0,ID,1561604283,64,-3.41,114.85,86.45,6.89
adony,0,HU,1561604284,100,47.12,18.86,75,2.82
la romana,40,DO,1561604284,100,18.43,-68.97,80.6,6.98
mobaye,93,CF,1561604284,94,4.33,21.18,69.89,2.17
sobolevo,100,RU,1561604284,98,54.43,31.9,66.47,8.86
lipin bor,53,RU,1561604284,73,60.26,37.97,50.45,5.61
metro,0,ID,1561604123,70,-5.11,105.31,82.85,5.28
talaya,0,RU,1561604285,56,55.79,84.89,71.6,8.95
virbalis,60,LT,1561604285,96,54.63,22.82,65.57,12.77
norden,75,DE,1561604285,76,53.59,7.21,55.99,8.05
el balyana,,,,,,,,
port moresby,75,PG,1561604285,83,-9.47,147.16,82.4,17.22
naze,100,NG,1561604286,98,5.43,7.07,72.23,4.18
cheuskiny,,,,,,,,
qaqortoq,90,GL,1561604286,87,60.72,-46.03,48.2,8.05
guangyuan,100,CN,1561604286,96,32.43,105.86,67.19,1.34
taoudenni,0,ML,1561604287,8,22.68,-3.98,94.73,9.93
koungou,,,,,,,,
chateau-gontier,0,FR,1561604287,83,47.83,-0.7,75.2,10.29
inirida,100,CO,1561604287,95,3.87,-67.92,73.85,1.57
bima,9,ID,1561604278,50,-8.45,118.73,82.13,5.7
mpika,0,ZM,1561604287,80,-11.84,31.4,53.33,7.07
porto novo,20,BR,1561604294,93,-23.68,-45.44,64.4,3.36
blackwater,11,GB,1561604294,87,51.33,-0.78,57.99,11.41
palabuhanratu,,,,,,,,
benguela,8,AO,1561604295,82,-12.58,13.4,69.35,10.58
plettenberg bay,0,ZA,1561604295,62,-34.05,23.37,54.41,4.79
lamar,1,US,1561604295,34,38.09,-102.62,82.4,12.75
hervey bay,42,AU,1561604295,56,-25.3,152.85,77,25.28
skjervoy,100,NO,1561604295,84,70.03,20.97,44.15,26.44
awbari,49,LY,1561604296,24,26.59,12.77,84.29,8.75
mauriti,96,BR,1561604296,91,-7.39,-38.77,67.73,3.94
limuru,75,KE,1561604296,87,-1.12,36.65,60.8,6.93
dingle,100,PH,1561604253,78,11,122.67,81.41,9.86
sieradz,0,PL,1561604296,78,51.6,18.74,72,9.17
rincon,20,PA,1561604297,94,8.46,-82.28,78.8,3.47
muros,0,ES,1561604297,100,42.77,-9.06,64,2.24
jiayuguan,100,CN,1561604297,44,39.77,98.29,65.93,13.6
eskisehir,40,TR,1561604297,93,39.78,30.52,64.4,5.82
sur,95,OM,1561604297,60,22.57,59.53,85.73,9.86
piranhas,0,BR,1561604298,55,-16.43,-51.82,66.65,1.77
lazo,100,RU,1561604298,95,45.88,133.65,62.15,7.9
alcudia,0,ES,1561604298,47,39.85,3.12,80.01,12.75
leningradskiy,99,RU,1561604298,81,69.38,178.42,35.33,11.03
kincardine,4,CA,1561604299,76,44.18,-81.63,66,4
oeiras do para,62,BR,1561604299,91,-2,-49.85,74.75,3.87
roma,0,IT,1561604299,60,41.89,12.48,78.01,2.24
kavant,,,,,,,,
santa eulalia del rio,,,,,,,,
kodaikanal,98,IN,1561604300,65,10.24,77.49,78.35,9.6
pangnirtung,3,CA,1561604300,68,66.15,-65.72,46.85,4.63
shache,81,CN,1561604300,80,38.42,77.24,75.99,3.2
gaogou,97,CN,1561604300,61,31.12,117.94,83.75,4.32
fayaoue,100,NC,1561604300,87,-20.65,166.53,73.67,16.58
coleraine,0,AU,1561604301,64,-37.6,141.69,58.91,19.53
lodeynoye pole,100,RU,1561604301,83,60.73,33.55,54.05,2.66
dukat,1,AL,1561604301,49,40.25,19.57,80.01,5.35
shumikha,100,RU,1561604301,92,55.23,63.28,53.69,4.38
oum hadjer,100,TD,1561604301,40,13.3,19.7,84.47,7.92
